City_ID,City,Lat,Lng,Max Temp,Humidity,Cloudiness,Wind Speed,Country,Date
0,Cabo San Lucas,22.8909,-109.9124,77.31,50,20,19.57,MX,1707345290
1,Novodvinsk,64.4165,40.8122,-20.22,100,99,3.69,RU,1707345290
2,Constanța,44.1833,28.65,45.28,68,100,13.33,RO,1707345245
3,New Norfolk,-42.7826,147.0587,66.7,54,63,3.18,AU,1707345291
4,George Town,5.4112,100.3354,80.53,93,20,3.44,MY,1707345292
5,Hawaiian Paradise Park,19.5933,-154.9731,76.51,87,100,3.44,US,1707345292
6,Happy Valley-Goose Bay,53.3168,-60.3315,17.91,49,75,3.44,CA,1707345207
7,Port-aux-Français,-49.35,70.2167,40.51,75,94,28.59,TF,1707345293
8,Manuguru,17.981,80.7547,73.45,74,7,3.51,IN,1707345293
9,Puerto Natales,-51.7236,-72.4875,46.85,90,90,14.32,CL,1707345294
10,Margaret River,-33.95,115.0667,67.51,46,0,3.76,AU,1707345112
11,Cacheu,12.2706,-16.1658,78.89,69,37,5.86,GW,1707345295
12,Kristiansund,63.1115,7.732,23.65,68,20,3.44,NO,1707345295
13,Jamestown,42.097,-79.2353,46.04,39,0,4.61,US,1707345233
14,Lodwar,3.1191,35.5973,86.65,41,3,9.33,KE,1707345296
15,Yanqul,23.5905,56.5501,53.89,66,63,5.08,OM,1707345296
16,Ushuaia,-54.8,-68.3,49.66,57,40,24.16,AR,1707345297
17,Invercargill,-46.4,168.35,60.03,66,43,15.01,NZ,1707345109
18,Al Ghayzah,16.2079,52.176,73.02,51,22,7.38,YE,1707345298
19,Waitangi,-43.9535,-176.5597,66.81,89,70,5.28,NZ,1707345298
20,Anadyr,64.75,177.4833,-1.7,84,75,20.13,RU,1707345193
21,Tazovsky,67.4667,78.7,11.64,96,100,11.01,RU,1707345249
22,Hirado,33.3597,129.5531,46.71,75,97,11.99,JP,1707345299
23,Port Elizabeth,-33.918,25.5701,68.29,79,0,10.36,ZA,1707345300
24,Bethel,41.3712,-73.414,42.76,45,37,3.0,US,1707345300
25,Giado,31.9582,12.0203,51.82,39,0,6.85,LY,1707345301
26,Albany,42.6001,-73.9662,38.35,62,71,2.28,US,1707345301
27,Katsuura,35.1333,140.3,44.38,78,99,5.06,JP,1707345302
28,Adamstown,-25.066,-130.1015,76.46,84,100,20.89,PN,1707345303
29,Kilkenny,52.6542,-7.2522,41.74,87,100,7.0,IE,1707345013
30,Pingzhuang,42.0372,119.2889,13.08,51,4,2.1,CN,1707345304
31,Bordj Ghdir,35.9011,4.8981,41.92,60,1,3.31,DZ,1707345304
32,Inhambane,-23.865,35.3833,76.62,77,1,7.45,MZ,1707345026
33,Tanjung Pandan,-2.75,107.65,78.85,85,100,4.25,ID,1707345305
34,Klyuchi,52.2667,79.1667,27.25,94,100,9.13,RU,1707345306
35,Punta Arenas,-53.15,-70.9167,53.71,58,75,17.27,CL,1707345306
36,Sitka,57.0531,-135.33,37.29,70,20,0.0,US,1707345307
37,Blackmans Bay,-43.0167,147.3167,65.52,68,72,2.75,AU,1707345146
38,Konark,19.9,86.1167,72.0,82,84,4.63,IN,1707345308
39,Al Bawīţī,28.3492,28.8659,55.09,52,0,5.08,EG,1707345309
40,Utrik,11.2278,169.8474,79.81,78,100,20.8,MH,1707345310
41,Lompoc,34.6391,-120.4579,57.69,63,100,12.66,US,1707345159
42,Najrān,17.4924,44.1277,56.05,53,18,5.7,SA,1707345311
43,Iqaluit,63.7506,-68.5145,-4.27,65,75,13.8,CA,1707345012
44,Fale old settlement,-9.3852,-171.2468,83.39,80,100,20.0,TK,1707345312
45,Ürümqi,43.801,87.6005,0.55,85,75,2.24,CN,1707345180
46,Arraial do Cabo,-22.9661,-42.0278,80.56,78,20,6.91,BR,1707345314
47,Stanley,54.868,-1.6985,30.52,91,0,2.3,GB,1707345314
48,Yellowknife,62.456,-114.3525,4.41,94,100,8.05,CA,1707345141
49,Constitución,-35.3333,-72.4167,67.51,59,9,20.13,CL,1707345315
50,Tralee,52.2704,-9.7026,41.74,88,100,15.66,IE,1707345315
51,Bāzārak,35.3129,69.5152,20.79,42,0,12.39,AF,1707345269
52,Kucha,41.7278,82.9364,24.82,71,32,5.19,CN,1707345316
53,Chui,-33.6971,-53.4616,73.89,79,23,10.71,UY,1707345049
54,Alice Springs,-23.7,133.8833,77.22,23,56,7.0,AU,1707345317
55,Grytviken,-54.2811,-36.5092,50.27,65,100,13.42,GS,1707345318
56,Ust-Nera,64.5667,143.2,-21.48,100,100,2.19,RU,1707345318
57,Egilsstadir,65.2653,-14.3948,21.11,73,75,10.36,IS,1707345319
58,Paranapanema,-23.3886,-48.7228,77.16,49,100,3.76,BR,1707345319
59,Hiratachō,35.4333,132.8167,37.42,100,75,1.14,JP,1707345320
60,Ingeniero Jacobacci,-41.3427,-69.5448,72.41,15,75,14.45,AR,1707345126
61,Keflavik,64.0049,-22.5624,27.03,74,0,12.66,IS,1707345321
62,Whitehorse,60.7161,-135.0538,5.77,85,20,8.05,CA,1707345321
63,Wailua Homesteads,22.0669,-159.378,79.23,67,40,13.8,US,1707345322
64,Kapuskasing,49.4169,-82.4331,37.4,81,100,2.3,CA,1707345322
65,Papatowai,-46.5619,169.4708,59.65,55,29,19.15,NZ,1707345323
66,Igarka,67.4667,86.5833,-0.35,98,98,6.11,RU,1707345323
67,Mahon,39.8885,4.2658,48.76,100,9,4.61,ES,1707345324
68,Edinburgh of the Seven Seas,-37.0676,-12.3116,63.3,66,64,4.09,SH,1707345324
69,Mount Pearl,47.5166,-52.7813,28.96,86,100,19.57,CA,1707345325
70,Thompson,55.7435,-97.8558,5.16,85,100,4.61,CA,1707345165
71,Revelstoke,50.9832,-118.2023,39.22,87,100,6.91,CA,1707345325
72,Avarua,-21.2078,-159.775,82.45,78,75,21.85,CK,1707345213
73,Taroa,8.7058,171.2275,81.12,79,100,22.15,MH,1707345326
74,Ilulissat,69.2167,-51.1,17.62,86,100,14.97,GL,1707345327
75,Puerto Baquerizo Moreno,-0.9,-89.6,83.39,79,40,11.5,EC,1707345327
76,Olonkinbyen,70.9221,-8.7187,25.32,82,91,18.07,SJ,1707345328
77,Nova Viçosa,-17.8919,-39.3719,79.39,85,86,8.99,BR,1707345328
78,Vorgashor,67.5833,63.95,16.38,88,100,10.78,RU,1707345179
79,Cassilândia,-19.1133,-51.7342,71.37,97,95,9.22,BR,1707345329
80,Hadibu,12.65,54.0333,76.84,66,100,12.21,YE,1707345330
81,Nuuk,64.1835,-51.7216,16.41,86,100,12.66,GL,1707345330
82,Lamu,-2.2717,40.902,80.4,85,27,13.02,KE,1707345331
83,Brookings,44.3114,-96.7984,50.38,84,100,21.3,US,1707345331
84,Söderhamn,61.3037,17.0592,18.16,81,30,3.38,SE,1707345332
85,Kapaa,22.0752,-159.319,80.58,67,40,13.8,US,1707345228
86,Slave Lake,55.2834,-114.769,22.98,86,100,5.75,CA,1707345296
87,Hasaki,35.7333,140.8333,32.4,57,55,0.87,JP,1707345333
88,Diamantina,-18.2494,-43.6003,65.28,96,100,2.51,BR,1707345334
89,Hermanus,-34.4187,19.2345,65.8,83,45,10.09,ZA,1707345334
90,Haiku-Pauwela,20.9219,-156.3051,78.82,65,20,24.16,US,1707345335
91,Port Mathurin,-19.6833,63.4167,79.43,80,66,16.46,MU,1707345336
92,Porbandar,21.6422,69.6093,70.77,51,97,10.56,IN,1707345338
93,Maksatikha,57.797,35.8825,0.3,96,100,6.35,RU,1707345338
94,Erenhot,43.6475,111.9767,-0.18,97,93,3.44,CN,1707345339
95,Ghanzi,-21.5667,21.7833,77.56,52,84,12.66,BW,1707345339
96,Pallasovka,50.05,46.8833,36.79,98,100,21.61,RU,1707345340
97,Zakynthos,37.7914,20.8953,54.64,83,100,9.82,GR,1707345340
98,Bengkulu,-3.8004,102.2655,75.13,89,100,3.47,ID,1707345247
99,West Island,-12.1568,96.8225,78.78,94,100,0.0,CC,1707345131
100,Sur,22.5667,59.5289,70.75,62,100,3.51,OM,1707345342
101,Mossamedes,-15.1961,12.1522,77.67,78,80,10.07,AO,1707345342
102,As Sulayyil,20.4607,45.5779,59.25,70,17,10.02,SA,1707345343
103,Mermoz Boabab,14.7065,-17.4758,81.16,61,0,6.91,SN,1707345343
104,Weno,7.4515,151.8468,82.35,78,100,11.5,FM,1707345344
105,Saint Paul Harbor,57.79,-152.4072,35.11,80,75,8.05,US,1707345120
106,Peterhead,57.5058,-1.7981,31.44,70,17,16.84,GB,1707345344
107,Mwingi,-0.9344,38.0601,68.23,79,24,0.49,KE,1707345345
108,I-n-Salah,27.1935,2.4607,61.09,22,99,10.47,DZ,1707345346
109,Flying Fish Cove,-10.4217,105.6791,76.68,94,40,2.3,CX,1707345346
110,Bilibino,68.0546,166.4372,-33.03,100,98,0.47,RU,1707345152
111,Naryan-Mar,67.6713,53.087,-4.9,98,100,10.0,RU,1707345347
112,Phan Rang-Thap Cham,11.5667,108.9833,70.56,89,97,3.74,VN,1707345348
113,Longyearbyen,78.2186,15.6401,19.24,68,40,17.27,SJ,1707345348
114,Itambé,-15.245,-40.6244,73.15,83,94,3.15,BR,1707345349
115,Samcheok,37.4406,129.1708,32.2,76,10,5.73,KR,1707345349
116,Awjilah,29.1081,21.2869,57.72,36,21,4.56,LY,1707345350
117,Isafjordur,66.0755,-23.124,19.24,74,4,5.59,IS,1707345153
118,Richards Bay,-28.783,32.0377,75.25,86,97,13.76,ZA,1707345351
119,Jayapura,-2.5333,140.7,79.99,85,100,3.51,ID,1707345352
120,Amos,48.5669,-78.1162,32.49,99,100,5.08,CA,1707345352
121,Tura,25.5198,90.2201,51.06,42,0,3.38,IN,1707345353
122,Palembang,-2.9167,104.7458,75.29,100,40,0.0,ID,1707345354
123,Talnakh,69.4865,88.3972,-12.53,88,44,4.36,RU,1707345354
124,Kachug,53.9606,105.8817,0.05,100,97,0.76,RU,1707345354
125,Alo,7.4178,6.7371,81.18,19,34,2.64,NG,1707345355
126,Mumford,5.2618,-0.759,78.67,83,41,6.13,GH,1707345355
127,Kushmurun,52.4503,64.6311,17.4,92,100,23.38,KZ,1707345356
128,Kailua-Kona,19.6406,-155.9956,78.76,70,75,9.22,US,1707345169
129,Guerrero Negro,27.9769,-114.0611,63.14,50,4,18.3,MX,1707345357
130,Kualakapuas,-3.0091,114.3876,74.35,98,98,0.63,ID,1707345357
131,Broken Hill,-31.95,141.4333,72.27,31,0,18.48,AU,1707345357
132,Ta`ū,-14.2336,-169.5144,81.25,87,100,27.31,AS,1707345358
133,Uliastai,47.7417,96.8444,-7.62,74,3,6.64,MN,1707345358
134,Troitskoye,52.9821,84.6757,18.77,89,90,4.65,RU,1707345359
135,Pak Phanang,8.3511,100.202,73.42,85,2,3.98,TH,1707345359
136,Portland,45.5234,-122.6762,52.68,76,40,6.91,US,1707345108
137,Türkmenbaşy,40.0222,52.9552,50.77,71,0,16.11,TM,1707345362
138,Cheney,47.4874,-117.5758,43.25,83,100,8.05,US,1707345362
139,Hekimhan,38.818,37.9312,37.92,91,64,4.27,TR,1707345363
140,Gachsaran,30.3586,50.7981,41.09,81,0,0.0,IR,1707345196
141,Puerto Ayora,-0.7393,-90.3518,85.96,93,74,7.0,EC,1707345364
142,Banjarmasin,-3.3244,114.591,77.14,96,100,1.41,ID,1707345365
143,Mugia,43.1041,-9.2179,61.92,85,100,35.37,ES,1707345366
144,Kumul,42.8,93.45,26.56,51,59,3.58,CN,1707345306
145,Bayanaul,50.7889,75.6956,16.9,86,7,12.48,KZ,1707345366
146,Alofi,-19.0595,-169.9187,85.89,70,75,8.05,NU,1707345367
147,Bandarbeyla,9.4942,50.8122,76.6,74,39,16.37,SO,1707345367
148,Iskateley,67.6803,53.1512,-4.99,98,100,10.0,RU,1707345368
149,Hotan,37.0997,79.9269,25.93,63,22,4.03,CN,1707345368
150,Vilyuchinsk,52.9306,158.4028,7.07,86,100,4.09,RU,1707345369
151,São José da Coroa Grande,-8.8978,-35.1478,81.09,81,40,11.43,BR,1707345369
152,Tadine,-21.55,167.8833,80.1,65,97,14.61,NC,1707345370
153,Rāvar,31.2656,56.8055,45.81,19,0,4.07,IR,1707345370
154,Gualdo Tadino,43.2317,12.781,50.41,75,75,30.0,IT,1707345371
155,Kruisfontein,-34.0033,24.7314,63.84,76,14,10.27,ZA,1707345257
156,Kingston,17.997,-76.7936,77.95,65,20,21.85,JM,1707345372
157,Bubaque,11.2833,-15.8333,79.48,77,93,13.47,GW,1707345372
158,Rumphi,-11.0186,33.8575,64.63,94,62,1.12,MW,1707345373
159,Bredasdorp,-34.5322,20.0403,65.37,78,5,8.93,ZA,1707345374
160,College,64.8569,-147.8028,17.2,80,75,0.0,US,1707345374
161,Capâo Bonito,-24.0058,-48.3494,71.49,83,70,5.06,BR,1707345374
162,Kavieng,-2.5744,150.7967,80.47,87,100,22.79,PG,1707345212
163,Mumbwa,-14.9783,27.0619,64.4,94,100,2.66,ZM,1707345375
164,Callao,-12.0667,-77.15,82.69,61,0,13.8,PE,1707345376
165,Tabou,4.423,-7.3528,80.74,84,12,6.6,CI,1707345376
166,Bueno Brandão,-22.4408,-46.3508,66.47,85,100,3.06,BR,1707345377
167,Algona,43.07,-94.233,55.13,62,0,21.85,US,1707345378
168,Tiksi,71.6872,128.8694,-6.03,99,100,4.83,RU,1707345378
169,Las Lomitas,-24.7096,-60.593,82.81,63,90,5.84,AR,1707345379
170,Undurkhaan,47.3194,110.6556,-14.67,99,87,3.76,MN,1707345379
171,Cherëmushki,52.8356,91.3944,3.47,88,52,5.14,RU,1707345380
172,Carnarvon,-24.8667,113.6333,80.31,56,0,3.78,AU,1707345380
173,Gwanda,-20.9333,29.0,75.25,44,4,7.23,ZW,1707345381
174,Oromocto,45.8351,-66.4792,28.54,67,20,4.61,CA,1707345381
175,Auki,-8.7676,160.7034,82.99,81,100,11.25,SB,1707345381
176,Tavda,58.0425,65.2726,18.7,92,69,7.0,RU,1707345382
177,Mogador,31.5125,-9.77,56.7,50,40,2.3,MA,1707345382
178,Gulf Shores,30.246,-87.7008,60.85,66,0,3.0,US,1707345383
179,Qaqortoq,60.7167,-46.0333,17.53,76,100,4.47,GL,1707345384
180,Oranjemund,-28.55,16.4333,64.72,87,2,7.76,NA,1707345385
181,Enewetak,11.3474,162.3373,80.04,80,100,19.37,MH,1707345385
182,Caromatan,7.7959,123.7145,76.84,88,100,1.92,PH,1707345386
183,Ketchikan,55.3422,-131.6461,37.87,60,75,6.91,US,1707345386
184,Hammerfest,70.6634,23.6821,12.65,67,0,13.8,NO,1707345387
185,Hanzhong,33.0728,107.0303,34.79,75,71,1.01,CN,1707345387
186,Shagonar,51.5333,92.8,-18.94,99,97,1.77,RU,1707345388
187,Waddān,29.1614,16.139,56.79,31,5,4.21,LY,1707345388
188,Sundargarh,22.1167,84.0333,61.34,37,1,5.59,IN,1707345389
189,Vernon,50.2581,-119.2691,39.92,88,100,3.44,CA,1707345331
190,Labytnangi,66.6572,66.4183,22.37,94,100,12.86,RU,1707345390
191,Savalou,7.9281,1.9756,84.16,18,7,5.21,BJ,1707345391
192,Chonchi,-42.6128,-73.8092,62.11,62,83,2.26,CL,1707345391
193,Kuanda,56.3161,116.0806,-0.47,99,99,1.14,RU,1707345392
194,Antsiranana,-12.2787,49.2917,77.68,88,96,4.65,MG,1707345392
195,Naze,28.3667,129.4833,52.72,79,100,8.75,JP,1707345393
196,La Ronge,55.1001,-105.2842,16.05,86,100,9.22,CA,1707345394
197,Visakhapatnam,17.69,83.2093,76.89,100,20,2.3,IN,1707345394
198,Isiro,2.7739,27.616,67.48,46,9,1.95,CD,1707345395
199,Dwārka,22.2394,68.9678,71.96,54,100,10.56,IN,1707345395
200,Miquelon,47.0975,-56.3814,30.2,75,31,13.51,PM,1707345396
201,Novofedorivka,46.1713,32.3178,44.62,79,5,12.97,UA,1707345396
202,Necoclí,8.4234,-76.786,77.72,87,49,9.8,CO,1707345396
203,Tobruk,32.0836,23.9764,59.83,60,43,6.51,LY,1707345397
204,Udachny,66.4167,112.4,-21.28,100,100,2.59,RU,1707345121
205,Vadsø,70.0744,29.7487,8.76,85,75,9.22,NO,1707345398
206,Gadzhiyevo,69.2551,33.3362,-10.89,100,95,8.01,RU,1707345195
207,Sudak,44.85,34.9667,50.05,74,74,14.16,UA,1707345193
208,Minas de Marcona,-15.2119,-75.1103,68.81,88,89,11.77,PE,1707345400
209,Marsh Harbour,26.5412,-77.0636,69.91,60,46,21.18,BS,1707345400
210,Muravlenko,63.7898,74.523,18.12,89,99,16.31,RU,1707345401
211,East London,-33.0153,27.9116,68.63,61,0,8.14,ZA,1707345225
212,Rémire-Montjoly,4.9167,-52.2667,82.44,78,40,6.91,GF,1707345204
213,Manavālakurichi,8.1333,77.3,74.23,76,62,6.96,IN,1707345402
214,Nova Sintra,14.8667,-24.7167,70.99,75,0,10.8,CV,1707345402
215,Atafu Village,-8.5421,-172.5159,82.71,81,100,18.01,TK,1707345403
216,Tual,-5.6667,132.75,79.92,87,100,19.13,ID,1707345403
217,Uturoa,-16.7333,-151.4333,82.67,87,47,31.61,PF,1707345404
218,Willis,30.4249,-95.4799,69.15,70,75,13.8,US,1707345404
219,Inverloch,-38.6333,145.7167,66.06,62,45,5.26,AU,1707345327
220,Oyama,36.3,139.8,38.59,56,53,3.0,JP,1707345405
221,Lagoa,39.05,-27.9833,60.71,80,81,31.32,PT,1707345405
222,Patan,27.6667,85.3333,41.38,87,20,0.0,NP,1707345406
223,Touros,-5.1989,-35.4608,81.39,79,87,12.12,BR,1707345305
224,Sarkand,45.41,79.9186,30.04,93,96,2.35,KZ,1707345407
225,Knottsville,37.7717,-86.9042,60.42,65,73,5.37,US,1707345407
226,Inírida,3.8653,-67.9239,81.5,79,76,0.94,CO,1707345408
227,Sinabang,2.4803,96.3801,79.9,80,98,1.34,ID,1707345408
228,Māngrol,21.1167,70.1167,70.32,52,88,11.83,IN,1707345408
229,Coquimbo,-29.9533,-71.3436,69.53,77,40,11.5,CL,1707345409
230,St. John's,47.5649,-52.7093,29.79,86,100,19.57,CA,1707345127
231,Margate,51.3813,1.3862,42.69,81,100,1.99,GB,1707345223
232,Badger,64.8,-147.5333,17.13,81,75,0.0,US,1707345149
233,Belebey,54.1167,54.1167,8.01,97,100,11.16,RU,1707345411
234,Puerto Ayacucho,5.6639,-67.6236,80.55,82,100,3.85,VE,1707345128
235,Castillos,-34.1667,-53.8333,74.59,75,37,10.33,UY,1707345411
236,Kachkanar,58.7,59.4948,17.08,96,100,5.01,RU,1707345412
237,Puerto Aisén,-45.4,-72.7,52.32,86,97,5.91,CL,1707345412
238,Mar del Plata,-38.0023,-57.5575,77.02,73,0,3.44,AR,1707345413
239,East Falmouth,41.5784,-70.5586,36.28,77,75,13.8,US,1707345143
240,Xining,36.6167,101.7667,12.22,92,94,3.04,CN,1707345413
241,Vila Franca do Campo,37.7167,-25.4333,63.01,95,100,14.34,PT,1707345414
242,Petropavlovsk-Kamchatskiy,53.0452,158.6483,5.59,66,20,6.71,RU,1707345414
243,Lubang,13.8584,120.124,78.51,78,7,11.45,PH,1707345415
244,Belsand,26.45,85.4,47.05,50,87,8.32,IN,1707345416
245,Trondheim,63.4305,10.3951,26.69,75,94,1.01,NO,1707345406
246,Qujing,25.4833,103.7833,36.37,94,1,3.69,CN,1707345416
247,Kavaratti,10.5669,72.642,82.44,73,80,8.21,IN,1707345417
248,Dondaicha,21.3333,74.5667,71.51,41,29,3.51,IN,1707345417
249,Hithadhoo,-0.6,73.0833,81.99,74,23,7.29,MV,1707345176
250,Bakanas,44.8081,76.2772,31.19,98,100,11.21,KZ,1707345418
251,Crane,31.3974,-102.3501,70.39,22,80,16.49,US,1707345419
252,Tôlanaro,-25.0319,46.9987,73.47,88,75,6.91,MG,1707345419
253,Shulan,44.4167,126.95,-5.53,100,20,4.7,CN,1707345420
254,Galesong,-5.3166,119.3661,75.22,88,100,4.79,ID,1707345338
255,General Pico,-35.6566,-63.7568,96.85,29,69,13.29,AR,1707345421
256,Bireun,5.203,96.7009,76.78,85,12,3.96,ID,1707345421
257,Masoko,-9.3333,33.75,67.39,89,65,5.21,TZ,1707345422
258,Montclair,40.8259,-74.209,46.35,45,0,3.44,US,1707345422
259,Sant Lluís,39.8526,4.2594,48.6,100,8,4.61,ES,1707345423
260,Natal,-5.795,-35.2094,83.05,78,20,6.91,BR,1707345423
261,Kerikeri,-35.2268,173.9474,74.91,76,3,5.55,NZ,1707345424
262,Baise City,23.8997,106.6133,49.87,72,100,1.95,CN,1707345425
263,Polyarny,69.1989,33.4478,-8.73,100,88,8.32,RU,1707345425
264,Miles City,46.4083,-105.8406,34.77,100,100,6.91,US,1707345425
265,Lázaro Cárdenas,17.9583,-102.2,81.75,63,3,10.96,MX,1707345426
266,Lihue,21.9789,-159.3672,79.84,67,40,13.8,US,1707345427
267,Raja,8.4596,25.678,70.03,22,75,3.15,SS,1707345427
268,La Passe,45.5549,-0.8967,54.99,93,100,17.49,FR,1707345249
269,Afaahiti,-17.75,-149.2833,84.07,89,100,33.8,PF,1707345428
270,Enterprise,36.0252,-115.2419,54.18,53,40,18.41,US,1707345428
271,Waat,51.1454,6.4958,40.89,94,100,0.0,DE,1707345429
272,Rio Grande,-32.035,-52.0986,78.91,84,42,16.11,BR,1707345429
273,Rødekro,55.0702,9.3164,35.15,96,75,16.11,DK,1707345429
274,Macao,22.2006,113.5461,51.6,87,40,19.57,MO,1707345430
275,Ghormach,35.7306,63.7826,48.87,33,6,5.21,AF,1707345430
276,Meadow Lake,34.8014,-106.5436,51.67,36,85,23.69,US,1707345431
277,Xai-Xai,-25.0519,33.6442,74.48,79,32,6.13,MZ,1707345307
278,La Santisima Trinidad,-14.8333,-64.9,89.58,70,40,6.91,BO,1707345432
279,Rongelap,11.1635,166.8941,79.77,77,85,23.26,MH,1707345432
280,Urangan,-25.3,152.9,81.66,63,54,21.79,AU,1707345432
281,Togur,58.3631,82.8265,18.14,93,100,7.0,RU,1707345433
282,Puerto Deseado,-47.7503,-65.8938,56.97,57,23,15.14,AR,1707345434
283,Jeddah,21.5169,39.2192,75.06,46,40,4.61,SA,1707345434
284,Dalandzadgad,43.5708,104.425,4.37,76,3,2.68,MN,1707345435
285,Changping,40.2186,116.2197,26.24,47,83,7.85,CN,1707345435
286,Bāfq,31.6128,55.4107,46.56,24,0,3.06,IR,1707345436
287,Lebu,-37.6167,-73.65,58.84,73,99,21.12,CL,1707345436
288,Jharsuguda,21.85,84.0333,62.26,41,2,6.17,IN,1707345436
289,Kamaishi,39.2667,141.8833,34.63,62,5,6.02,JP,1707345437
290,Moengo,5.6167,-54.4,78.13,75,31,6.38,SR,1707345437
291,Daru,-9.0763,143.2092,78.28,89,99,10.65,PG,1707345438
292,Nasir,15.5894,32.5634,68.43,18,90,11.34,SD,1707345438
293,Port Lincoln,-34.7333,135.8667,64.63,69,40,12.46,AU,1707345438
294,Kīsh,26.5578,54.0194,66.47,63,0,9.22,IR,1707345439
295,Nemuro,43.3236,145.575,22.06,67,71,2.93,JP,1707345439
296,Gamba,-2.65,10.0,75.85,88,100,3.87,GA,1707345440
297,Lā‘ie,21.6477,-157.9253,80.56,68,19,8.99,US,1707345440
298,Hūn,29.1268,15.9477,57.79,30,4,5.7,LY,1707345441
299,Al Mahwit,15.4701,43.5448,54.25,92,99,2.68,YE,1707345442
300,Palangkaraya,-2.2,113.8333,74.43,98,96,0.87,ID,1707345442
301,Elko,41.0002,-115.5012,36.73,69,97,10.0,US,1707345443
302,Thunder Bay,48.4001,-89.3168,35.58,93,100,10.36,CA,1707345269
303,Kusŏng,39.9811,125.2447,15.53,81,0,5.26,KP,1707345444
304,Burao,9.5221,45.5336,66.76,74,100,5.88,SO,1707345444
305,Chuhar Jamali,24.3895,67.9923,65.44,36,96,12.48,PK,1707345445
306,Kiuruvesi,63.65,26.6167,-14.94,100,55,2.44,FI,1707345445
307,Dunedin,-45.8742,170.5036,63.81,53,8,8.01,NZ,1707344689
308,Singkil,-7.9855,111.4161,75.13,89,93,3.24,ID,1707345447
309,Muzambinho,-21.3758,-46.5256,65.52,89,95,1.05,BR,1707345331
310,Aydarken,39.9443,71.3429,27.25,60,100,10.58,KG,1707345448
311,Lata,40.1629,-8.3327,60.82,91,100,6.69,PT,1707345389
312,Pariyapuram,10.9561,76.1916,73.69,73,70,1.63,IN,1707345449
313,Uusikaupunki,60.8004,21.4084,8.17,97,49,3.83,FI,1707345450
314,Killarney,52.05,-9.5167,41.94,91,100,10.83,IE,1707345450
315,Isiolo,0.3546,37.5822,70.2,70,17,4.27,KE,1707345451
316,Akālgarh,29.8167,75.8833,44.1,53,0,8.48,IN,1707345451
317,Ebon,4.582,168.6964,82.85,77,60,23.02,MH,1707345451
318,Klaksvík,62.2266,-6.589,32.92,63,98,21.32,FO,1707345186
319,Kerben,40.2951,72.1863,36.1,49,100,3.27,KG,1707345452
320,Daşoguz,41.8363,59.9666,37.35,81,0,9.22,TM,1707345453
321,Keren,15.7778,38.4581,63.52,67,96,3.27,ER,1707345453
322,Mejit,10.2753,170.8646,79.99,80,87,22.19,MH,1707345453
323,Papao,-17.75,-149.55,85.68,89,100,36.91,PF,1707345454
324,Orlov,58.5395,48.8917,-3.75,98,95,1.21,RU,1707345455
325,Wakkanai,45.4094,141.6739,27.75,74,100,9.75,JP,1707345455
326,Verkhnyaya Sinyachikha,57.976,61.6673,6.84,100,93,3.29,RU,1707345456
327,Moïssala,8.3404,17.7663,76.15,20,66,4.9,TD,1707345456
328,Sosnovo-Ozerskoye,52.5249,111.5418,-11.24,100,99,3.76,RU,1707345456
329,Finisterra,42.9049,-9.2629,61.75,88,100,35.03,ES,1707345457
330,Raduzhny,62.0961,77.475,19.13,81,99,13.29,RU,1707345458
331,Lecheng,25.1238,113.3254,37.36,91,98,4.27,CN,1707345458
332,Pisco,-13.7,-76.2167,82.45,69,0,18.41,PE,1707345459
333,Tobelo,1.7284,128.0095,79.18,81,90,2.89,ID,1707345459
334,Barra de Santo Antônio,-9.4047,-35.5072,81.68,82,51,10.31,BR,1707345459
335,Broome,42.2506,-75.833,39.67,76,77,0.45,US,1707345460
336,Mhamid,29.82,-5.72,57.52,22,0,4.09,MA,1707345460
337,Maturin,9.75,-63.1767,91.24,62,68,9.22,VE,1707345461
338,Ribeira Grande,38.5167,-28.7,62.78,88,97,20.0,PT,1707345461
339,Camocim,-2.9022,-40.8411,80.11,86,58,12.8,BR,1707345355
340,Kirakira,-10.4544,161.9205,84.67,76,100,13.31,SB,1707345462
341,Khōst,33.3395,69.9204,41.07,32,0,5.35,AF,1707345462
342,Holualoa,19.6228,-155.9522,75.04,71,75,9.22,US,1707345270
343,Bardai,11.65,7.2333,65.17,21,83,9.62,NG,1707345463
344,El Granada,37.5027,-122.4694,54.32,79,75,24.16,US,1707345464
345,Bobo-Dioulasso,11.1771,-4.2979,77.45,18,5,6.91,BF,1707345465
346,Lakhipur,26.0299,90.3041,52.88,47,4,3.87,IN,1707345465
347,Ulladulla,-35.35,150.4667,68.27,56,100,7.67,AU,1707345465
348,Soyo,-6.1349,12.3689,80.78,87,85,5.97,AO,1707345466
349,Al Kharj,24.155,47.3346,55.98,29,9,5.68,SA,1707345466
350,Pandan,14.0453,124.1694,76.3,80,24,3.04,PH,1707345467
351,Codrington,-38.2667,141.9667,63.19,58,63,7.99,AU,1707345467
352,Argos,37.6333,22.7333,54.01,51,100,4.5,GR,1707345468
353,Birobidzhan,48.8,132.95,-6.18,97,40,3.89,RU,1707345381
354,Qoryooley,1.7878,44.53,78.31,84,24,13.73,SO,1707345468
355,Lospalos,-8.5186,127.0025,73.08,93,92,2.68,TL,1707345469
356,Beaufort West,-32.3567,22.583,68.52,51,0,7.18,ZA,1707345469
357,Port Hedland,-20.3167,118.5667,77.05,57,26,9.22,AU,1707345470
358,Masterton,-40.9597,175.6575,73.09,50,99,7.7,NZ,1707345470
359,Saipan,15.1355,145.701,79.5,65,20,11.5,MP,1707345471
360,Lerwick,60.1545,-1.1494,35.6,63,54,14.29,GB,1707345471
361,Dudinka,69.4058,86.1778,-10.32,98,38,5.01,RU,1707345472
362,Saint-Pierre,-21.3393,55.4781,78.48,73,20,4.61,RE,1707345472
363,Paracuru,-3.41,-39.0306,84.11,82,67,10.89,BR,1707345473
364,Dubbo,-32.25,148.6167,68.13,68,100,14.97,AU,1707345473
365,Hailar,49.2,119.7,-17.43,100,94,6.4,CN,1707345473
366,Bestöbe,52.4994,73.0975,21.24,84,38,19.57,KZ,1707345474
367,Arrifes,37.7667,-25.7,61.05,88,75,23.02,PT,1707345474
368,Freetown,8.484,-13.2299,77.72,87,10,6.44,SL,1707345368
369,Yazman,29.1212,71.7446,56.59,43,8,8.19,PK,1707345475
370,Ust'-Kulom,61.6864,53.6902,21.02,95,100,7.45,RU,1707345475
371,Pahrump,36.2083,-115.9839,50.05,72,92,8.01,US,1707345476
372,Puerto Asís,0.5133,-76.5007,81.23,80,58,1.61,CO,1707345476
373,Laojunmiao,39.8333,97.7333,15.31,59,51,1.72,CN,1707345477
374,Moab,38.5733,-109.5498,50.61,36,67,5.99,US,1707345391
375,Berdigestyakh,62.0989,126.6992,-32.53,99,95,2.91,RU,1707345478
376,Quellón,-43.1167,-73.6167,56.12,72,97,5.19,CL,1707345479
377,Praia,14.9215,-23.5087,75.74,53,0,13.8,CV,1707345180
378,Chabahar,25.2919,60.643,69.64,48,86,4.68,IR,1707345479
379,Yuzhno-Kurilsk,44.0306,145.8556,16.38,86,51,4.7,RU,1707345480
380,Sinop Province,41.7711,34.8709,48.09,57,100,8.08,TR,1707345480
381,Labrador City,52.9463,-66.9114,19.18,92,100,3.44,CA,1707345481
382,Toguchin,55.2353,84.3858,15.93,90,95,7.85,RU,1707345481
383,Peachtree City,33.3968,-84.5958,59.16,37,0,3.44,US,1707345482
384,Tromsø,69.6496,18.957,15.82,73,0,11.5,NO,1707345483
385,Qui Nhon,13.7667,109.2333,72.52,89,77,3.24,VN,1707345483
386,Fort Bragg,35.139,-79.006,53.74,28,0,8.05,US,1707345377
387,Hilton Head,32.2163,-80.7526,59.11,59,0,0.0,US,1707345356
388,Daura,11.5538,11.4085,65.14,25,77,9.06,NG,1707345485
389,Esquina,-30.0144,-59.5272,88.07,45,60,3.67,AR,1707345485
390,Hinton,53.4001,-117.5857,30.38,74,99,2.77,CA,1707345485
391,Cockburn Town,21.4612,-71.1419,74.93,70,0,20.69,TC,1707345486
392,Porto-Novo,6.4965,2.6036,82.22,60,19,2.26,BJ,1707345486
393,Yarmouth,41.7057,-70.2286,36.07,81,100,13.0,US,1707345487
394,Desnogorsk,54.1508,33.2815,14.61,92,100,11.65,RU,1707345487
395,Umm Kaddadah,13.6017,26.6876,60.12,23,43,11.3,SD,1707345488
396,Drawsko Pomorskie,53.5306,15.8097,29.39,90,100,7.05,PL,1707345265
397,Batī,11.1833,40.0167,63.68,78,89,3.53,ET,1707345489
398,Port Alfred,-33.5906,26.891,64.18,84,0,1.99,ZA,1707345489
399,Trevelin,-43.0858,-71.4639,60.28,42,44,8.59,AR,1707345489
400,Yaren,-0.5472,166.916,84.67,77,83,16.49,NR,1707345490
401,Fada,9.5667,8.3,69.71,24,37,6.93,NG,1707345490
402,Kyren,51.6828,102.1408,8.94,78,53,1.99,RU,1707345491
403,Sealy,29.7808,-96.1572,69.75,69,98,11.01,US,1707345491
404,Tocopilla,-22.092,-70.1979,75.47,72,17,2.82,CL,1707345491
405,Irymple,-34.25,142.1667,67.08,59,0,1.99,AU,1707345492
406,Alghero,40.5589,8.3181,53.69,87,20,11.5,IT,1707345492
407,Mālvan,16.0667,73.4667,77.31,57,33,11.25,IN,1707345493
408,Howard Springs,-12.497,131.047,79.88,96,100,2.15,AU,1707345493
409,Arrondissement de la Basse-Terre,16.1667,-61.6667,78.04,89,100,14.97,GP,1707345302
410,Tahoua,14.8888,5.2692,66.11,14,5,11.7,NE,1707345494
411,Aleg,17.0481,-13.9209,79.99,8,0,10.16,MR,1707345495
412,Bamboo Flat,11.7,92.7167,71.69,100,32,2.3,IN,1707345495
413,Kyabé,9.4515,18.9449,78.3,19,75,5.23,TD,1707345495
414,Palestrina,41.8355,12.889,50.63,88,57,1.99,IT,1707345496
415,Yamazakichō-nakabirose,35.0,134.55,35.35,83,93,3.89,JP,1707345497
416,Grand Rapids,42.9634,-85.6681,48.2,62,100,11.5,US,1707345150
417,Hirara,24.8,125.2833,64.67,88,75,16.11,JP,1707345498
418,Kerch,45.3583,36.4758,47.55,83,91,17.0,UA,1707345498
419,Valdez,1.2492,-78.9831,79.7,86,40,5.03,EC,1707345499
420,Grand Falls-Windsor,48.9332,-55.6649,11.17,98,34,2.93,CA,1707345500
421,Bhadrāchalam,17.6667,80.8833,72.93,82,6,3.22,IN,1707345501
422,São Tomé,0.3365,6.7273,81.5,81,96,6.08,ST,1707345501
423,Mga,59.75,31.0667,9.61,98,99,4.56,RU,1707345501
424,Bitkine,11.9801,18.2138,70.68,22,95,7.43,TD,1707345502
425,Conception Bay South,47.4999,-52.9981,29.55,89,45,18.99,CA,1707345332
426,Merizo Village,13.2658,144.6691,80.38,73,100,14.92,GU,1707345503
427,Klimovo,52.3805,32.1923,25.16,85,84,12.24,RU,1707345503
428,Guaratinga,-16.5667,-39.5667,75.31,88,91,4.47,BR,1707345503
429,Bereket,39.2446,55.5154,50.92,45,99,4.38,TM,1707345504
430,Tabuk,17.4189,121.4443,68.04,85,0,1.83,PH,1707345504
431,Tot'ma,59.9747,42.7642,-1.5,97,100,6.42,RU,1707345505
432,Sorsk,54.0033,90.2467,0.79,92,82,4.63,RU,1707345505
433,Colares,38.7992,-9.4469,62.76,94,100,15.01,PT,1707345506
434,Rome,43.2128,-75.4557,40.08,53,100,4.61,US,1707345363
435,Claremore,36.3126,-95.6161,64.53,35,0,14.97,US,1707345507
436,Necochea,-38.5473,-58.7368,71.31,93,100,5.3,AR,1707345507
437,Bariloche,-41.1456,-71.3082,62.35,36,40,21.85,AR,1707345508
438,Qadirpur Ran,30.2924,71.6712,51.69,58,0,2.21,PK,1707345508
439,San Pedro Pochutla,15.7333,-96.4667,85.71,59,36,4.85,MX,1707345508
440,Mwinilunga,-11.7358,24.4293,61.18,93,58,1.1,ZM,1707345509
441,Howrah,22.5892,88.3103,66.2,55,2,6.55,IN,1707345509
442,Hamilton,39.1834,-84.5333,58.44,33,0,3.44,US,1707345174
443,Inongo,-1.95,18.2667,75.72,80,72,3.98,CD,1707345510
444,Pedernales,18.0384,-71.744,76.91,63,33,6.62,DO,1707345511
445,La Sarre,48.8002,-79.1996,33.15,94,100,6.85,CA,1707345511
446,Anshing,20.0333,77.3167,68.38,43,4,7.16,IN,1707345512
447,Ibusuki,31.2333,130.65,47.77,64,60,10.8,JP,1707345512
448,Machico,32.7,-16.7667,66.83,63,40,21.85,PT,1707345512
449,Riohacha,11.5444,-72.9072,73.51,100,100,11.5,CO,1707345513
450,Namsos,64.4662,11.4957,30.25,79,100,3.44,NO,1707345513
451,Minbu,20.1833,94.8833,67.64,80,0,1.92,MM,1707345514
452,Wewak,-3.5534,143.6268,80.82,82,99,7.05,PG,1707345515
453,Gobabis,-22.45,18.9667,73.04,55,91,8.99,NA,1707345515
454,Sydney Mines,46.2367,-60.2177,28.18,87,100,14.0,CA,1707345516
455,Ust'-Ilimsk,58.0006,102.6619,12.43,97,99,3.0,RU,1707345516
456,Kandiaro,27.0601,68.2091,59.72,47,80,5.28,PK,1707345517
457,Bria,6.5423,21.9863,73.08,32,22,4.05,CF,1707345517
458,Witu,-2.3889,40.4382,78.26,88,45,7.27,KE,1707345518
459,Sulak,43.2734,47.5146,48.13,68,47,6.78,RU,1707345518
460,Dêqên,29.9618,90.7188,24.4,20,0,5.19,CN,1707345519
461,Tchibanga,-2.85,11.0333,72.41,95,100,2.24,GA,1707345519
462,Padang,-0.9492,100.3543,78.85,87,91,3.04,ID,1707345519
463,Chancay,-11.5714,-77.2672,77.23,79,25,6.44,PE,1707345520
464,Imperatriz,-5.5264,-47.4917,75.7,94,82,3.67,BR,1707345520
465,Zouérat,22.7187,-12.4521,67.42,10,0,8.59,MR,1707345413
466,Qā’en,33.7265,59.1844,41.18,32,2,4.54,IR,1707345521
467,Raton,36.9034,-104.4391,48.54,25,0,21.85,US,1707345522
468,Fort McMurray,56.7268,-111.381,20.79,86,100,1.14,CA,1707345315
469,Totness,5.8833,-56.3167,79.43,84,18,14.05,SR,1707345522
470,Linguaglossa,37.8432,15.1388,53.26,60,10,4.97,IT,1707345523
471,Zyryanskoye,56.8306,86.6258,4.35,97,95,5.97,RU,1707345523
472,Altamira,-3.2033,-52.2064,77.45,90,92,1.72,BR,1707345524
473,Muang Xay,20.7,101.9833,58.23,59,0,0.87,LA,1707345524
474,Bonthe,7.5264,-12.505,78.75,88,5,6.67,SL,1707345525
475,El Campo,29.1966,-96.2697,70.09,88,100,17.27,US,1707345525
476,Dukhān,25.4297,50.7858,63.09,64,0,12.64,QA,1707345525
477,Baiti,13.745,-14.7482,85.33,10,2,10.18,SN,1707345526
478,Padre Paraíso,-17.0742,-41.4844,70.21,92,100,4.12,BR,1707345526
479,Eastham,41.8301,-69.9739,35.62,74,75,8.01,US,1707345526
480,Eydhafushi,5.1033,73.0708,81.16,73,96,12.5,MV,1707345527
481,Sanctuary Point,-35.1114,150.629,72.99,54,100,8.75,AU,1707345527
482,Praia da Vitória,38.7333,-27.0667,61.05,77,20,22.5,PT,1707345528
483,Fort St. John,56.2499,-120.8529,19.29,73,75,2.3,CA,1707345316
484,San Patricio,28.017,-97.5169,73.35,70,100,18.03,US,1707345529
485,Booué,-0.0921,11.9385,79.14,78,10,5.03,GA,1707345529
486,Gao,16.6362,1.637,64.78,15,2,11.03,ML,1707345530
487,Paramonga,-10.6667,-77.8333,78.04,78,17,7.43,PE,1707345530
488,Hanceville,34.0607,-86.7675,66.11,65,54,4.68,US,1707345530
489,Anzio,41.4853,12.6179,55.13,80,34,11.39,IT,1707345531
490,Dolores,-36.3132,-57.6792,81.9,62,99,2.44,AR,1707345532
491,Byron Bay,-28.65,153.6167,71.71,84,39,7.92,AU,1707345532
492,Sidi Ifni,29.3797,-10.173,65.73,39,79,6.51,MA,1707345533
493,Vila do Maio,15.1333,-23.2167,75.99,72,0,12.55,CV,1707345422
494,Mili,6.0815,171.735,82.42,76,87,20.13,MH,1707345534
495,Liminka,64.8099,25.4155,-8.95,84,79,9.22,FI,1707345534
496,Mount Gambier,-37.8333,140.7667,63.19,58,32,6.4,AU,1707345535
497,Gravina in Puglia,40.8197,16.4228,51.35,82,60,3.0,IT,1707345535
498,Carbondale,37.7273,-89.2168,57.49,44,0,11.5,US,1707345279
499,Jwaneng,-24.6004,24.7303,77.31,28,96,13.65,BW,1707345536
500,Vuktyl,63.8567,57.3094,15.12,94,100,8.99,RU,1707345536
501,Kendari,-3.945,122.4989,77.25,92,100,2.53,ID,1707345537
502,Christchurch,-43.5333,172.6333,65.91,90,100,13.8,NZ,1707345515
503,Belmonte,-15.8631,-38.8828,78.91,84,83,6.46,BR,1707345538
504,Chilgok,35.9917,128.3973,30.15,71,18,1.81,KR,1707345538
505,Tazacorte,28.629,-17.9293,68.14,21,0,10.0,ES,1707345539
506,Gelibolu,40.4103,26.6708,58.86,36,100,16.55,TR,1707345539
507,Saldanha,-33.0117,17.9442,66.25,84,67,10.04,ZA,1707345539
508,Paraíso,9.8383,-83.8656,70.66,94,99,3.74,CR,1707345540
509,Port Douglas,-16.4833,145.4667,82.47,74,30,4.47,AU,1707345540
510,Amboanjo,-22.6667,47.8167,74.07,94,100,4.88,MG,1707345541
511,Arar,30.9753,41.0381,50.02,53,0,4.61,SA,1707345541
512,Partenit,44.578,34.3446,50.02,77,95,12.06,UA,1707345542
513,Collinsville,38.6703,-89.9846,58.51,52,0,11.5,US,1707345543
514,Luziânia,-16.2525,-47.9503,78.49,86,100,2.98,BR,1707345544
515,Chuguyevka,44.1653,133.8633,-0.62,95,30,2.24,RU,1707345544
516,Lagunas,-5.2269,-75.6753,79.07,91,92,1.77,PE,1707345545
517,Jaumave,23.4167,-99.3833,73.04,25,63,6.51,MX,1707345545
518,Cologne,50.9333,6.95,40.95,90,100,2.3,DE,1707345547
519,Taoudenni,22.6783,-3.9836,66.96,14,2,9.84,ML,1707345547
520,Altai,46.3722,96.2583,-1.41,73,0,1.9,MN,1707345548
521,Esim,4.8699,-2.2405,78.26,87,10,4.54,GH,1707345548
522,Kelibia,36.8476,11.0939,57.45,88,20,5.75,TN,1707345548
523,Butte,39.6499,-121.5677,42.82,85,100,14.97,US,1707345549
524,Lira,2.235,32.9097,78.24,40,100,4.41,UG,1707345550
525,Newman,37.3138,-121.0208,50.34,87,99,4.0,US,1707345550
526,Lüderitz,-26.6481,15.1594,65.37,75,32,13.13,NA,1707345551
527,Sâmraông,12.4526,105.5873,73.36,90,100,3.69,KH,1707345551
528,Mpulungu,-8.7623,31.1141,72.73,81,51,3.47,ZM,1707345552
529,Beli,7.8587,10.9719,75.76,20,85,1.48,NG,1707345552
530,Guararapes,-21.2608,-50.6428,71.58,70,100,1.88,BR,1707345382
531,Coelho Neto,-4.2567,-43.0128,80.19,77,95,3.36,BR,1707345553
532,Kamyzyak,46.11,48.0736,44.02,81,0,11.18,RU,1707345553
533,Port Saint John's,-31.6229,29.5448,71.08,79,78,7.81,ZA,1707345554
534,Geraldton,-28.7667,114.6,84.61,14,0,23.02,AU,1707345554
535,Trairi,-3.2778,-39.2689,80.92,81,26,9.4,BR,1707345555
536,Carutapera,-1.195,-46.02,80.06,80,85,7.43,BR,1707345555
537,Baie-Comeau,49.2168,-68.1489,20.88,100,75,6.91,CA,1707345556
538,Kodinsk,58.6881,99.1844,9.45,99,99,2.13,RU,1707345556
539,Melfi,40.9965,15.6514,46.49,89,37,7.25,IT,1707345556
540,Tomatlán,19.9333,-105.25,84.0,53,50,10.74,MX,1707345557
541,Kyakhta,50.3508,106.4494,-17.18,100,99,3.4,RU,1707345557
542,El Nido,11.1858,119.3956,79.2,78,83,7.65,PH,1707345558
543,Tofol,5.3248,163.0078,82.81,74,99,18.07,FM,1707345558
544,Smithers,54.7804,-127.1743,26.92,86,100,5.75,CA,1707345349
545,Ebaye,8.7748,167.7392,84.22,70,40,19.57,MH,1707345559
546,Ghadames,30.1337,9.5007,55.54,34,0,5.03,LY,1707345559
547,Turpan,42.9333,89.1667,30.36,59,2,1.66,CN,1707345560
548,Kiama,-34.6833,150.8667,73.26,70,92,10.6,AU,1707345560
549,Whitby,54.4877,-0.615,33.39,84,93,3.24,GB,1707345313
550,Talara,-4.5772,-81.2719,84.96,70,75,11.5,PE,1707345561
551,Kennebunk,43.384,-70.5448,37.62,73,0,0.0,US,1707345561
552,Gizo Government Station,-8.103,156.8419,83.28,81,100,17.36,SB,1707345562
553,Ginir,7.1333,40.7,61.75,51,52,3.56,ET,1707345563
554,Aasiaat,68.7098,-52.8699,1.63,88,95,27.07,GL,1707345563
555,Zapolyarnyy,69.4154,30.8136,-6.52,100,94,5.12,RU,1707345563
556,Tshabong,-26.05,22.45,82.4,30,100,9.95,BW,1707345564
557,Heraklion,35.3279,25.1434,55.02,76,20,12.66,GR,1707345564
558,Kuala Terengganu,5.3302,103.1408,76.95,100,20,2.3,MY,1707345565
559,Biloela,-24.4167,150.5,83.1,53,3,17.43,AU,1707345565
560,Morinville,53.8001,-113.652,26.92,89,100,5.75,CA,1707345566
561,Biltine,14.5333,20.9167,65.25,20,76,8.25,TD,1707345566
562,Kiffa,16.6166,-11.4045,76.91,9,0,11.07,MR,1707345567
563,Santa Cruz de la Sierra,-17.8,-63.1667,89.65,51,20,18.41,BO,1707345402
564,Malango,-2.9627,119.9001,68.02,94,100,2.8,ID,1707345568
565,New Plymouth,-39.0667,174.0833,69.85,69,27,7.7,NZ,1707345569
566,Härnösand,62.6323,17.9379,1.4,94,67,3.76,SE,1707345569
567,Pemangkat,1.1667,108.9667,76.01,93,16,4.76,ID,1707345569
568,Mariental,-24.6333,17.9667,79.5,38,98,7.0,NA,1707345570
569,Ancud,-41.8697,-73.8203,58.68,63,73,11.32,CL,1707345570
570,Opuwo,-18.0607,13.84,71.15,70,87,3.69,NA,1707345571
571,Dehui,44.5333,125.7,-7.13,100,21,4.34,CN,1707345571
572,Vorkuta,67.5,64.0,15.3,89,100,9.17,RU,1707345571
573,Adrar,20.5022,-10.0711,66.74,11,4,10.83,MR,1707345572
574,Balboa,2.0396,-77.2168,66.63,91,89,4.52,CO,1707345572
575,Kemijärvi,66.7131,27.4306,-11.99,99,100,2.64,FI,1707345573
576,Mandalgovi,45.7625,106.2708,-6.57,94,44,5.14,MN,1707345573
577,Bay Roberts,47.5999,-53.2648,30.15,91,12,5.01,CA,1707345574
578,Angatuba,-23.4897,-48.4128,75.92,54,100,4.36,BR,1707345575
579,Knyaze-Volkonskoye,48.4642,135.4567,-3.66,99,98,4.0,RU,1707345575
580,Chazuta,-6.5742,-76.1367,88.65,92,88,0.85,PE,1707345575
581,Santo Pipó,-27.1413,-55.4087,72.07,92,61,4.94,AR,1707345576
582,Kızılcahamam,40.4697,32.6506,46.02,70,100,3.96,TR,1707345576
583,Alaghsas,17.0187,8.0168,62.08,20,2,10.76,NE,1707345577
584,Kiunga,-6.1219,141.2906,75.16,91,100,1.54,PG,1707345577
585,Port de Pollença,39.9075,3.0814,57.33,71,36,12.91,ES,1707345578
586,Maun,-19.9833,23.4167,76.96,65,0,4.61,BW,1707345579
587,Paso de los Toros,-32.8167,-56.5167,89.11,36,17,9.22,UY,1707345580
588,San Antonio de Palé,-1.4014,5.6325,82.51,76,26,3.62,GQ,1707345580
